{
  "datas": [
    {
      "name": "선택",
      "latitude": "",
      "longitude": "",
      "address":""
    },
    {
      "name": "교외 (학교 주변)",
      "latitude": "",
      "longitude": "",
      "address":""
    },
    {
      "name": "퇴계인문관",
      "latitude": "37.5894065478737",
      "longitude": "126.991571548983",
      "address":"서울 종로구 성균관로 25-2"
    },
    {
      "name": "경영관",
      "latitude": "37.5887506945572",
      "longitude": "126.992604223673",
      "address":"서울 종로구 성균관로 25-2"
    },
    {
      "name": "다산경제관",
      "latitude": "37.5889885237112",
      "longitude": "126.992096956061",
      "address":"서울 종로구 성균관로 25-2"
    },
    {
      "name": "수선관",
      "latitude": "37.5879396857186",
      "longitude": "126.990946725987",
      "address":"서울 종로구 성균관로 25-2"
    },
    {
      "name": "호암관",
      "latitude": "37.588393862222",
      "longitude": "126.992001911427",
      "address":"서울 종로구 성균관로 25-2"
    },
    {
      "name": "법학관",
      "latitude": "37.5875215924164",
      "longitude": "126.990530120023",
      "address":"서울 종로구 성균관로 25-2"
    },
    {
      "name": "중앙학술정보관",
      "latitude": "37.5884660693587",
      "longitude": "126.994184849574",
      "address":"서울 종로구 성균관로 25-2"
    },
    {
      "name": "600주년 기념관",
      "latitude": "37.5874425591912",
      "longitude": "126.994551767778",
      "address":"서울 종로구 성균관로 25-2"
    },
    {
      "name": "학생회관",
      "latitude": "37.5875397977001",
      "longitude": "126.993224799663",
      "address":"서울 종로구 성균관로 25-2"
    },
    {
      "name": "교수회관",
      "latitude": "37.5887002728259",
      "longitude": "126.993165818157",
      "address":"서울 종로구 성균관로 25-2"
    },
    {
      "name": "양현관",
      "latitude": "37.5897742649203",
      "longitude": "126.993324235398",
      "address":"서울 종로구 명륜길 69"
    }
  ]
}
