{
  "datas": [
    {
      "name": "선택",
      "latitude": "",
      "longitude": "",
      "address":""
    },
    {
      "name": "교외 (학교 주변)",
      "latitude": "",
      "longitude": "",
      "address":""
    },
    {
      "name": "학생회관",
      "latitude": "37.2942458206906",
      "longitude": "126.973681451252",
      "address":"경기 수원시 장안구 서부로 2066"
    },
    {
      "name": "복지회관",
      "latitude": "37.2940076979654",
      "longitude": "126.972585307422",
      "address":"경기 수원시 장안구 서부로 2066"
    },
    {
      "name": "수성관",
      "latitude": "37.2932254952127",
      "longitude": "126.97214800732",
      "address":"경기 수원시 장안구 서부로 2066"
    },
    {
      "name": "유틸리티센터",
      "latitude": "37.2943873648041",
      "longitude": "126.978549034254",
      "address":"경기 수원시 장안구 천천동 300"
    },
    {
      "name": "환경플랜트",
      "latitude": "37.2910420796046",
      "longitude": "126.975302032141",
      "address":"경기 수원시 장안구 서부로 2066"
    },
    {
      "name": "공학실습동A(20)",
      "latitude": "37.29423951412497",
      "longitude": "126.97810923080068",
      "address":"경기 수원시 장안구 서부로 2066"
    },
    {
      "name": "제1공학관21동",
      "latitude": "37.293619732589335",
      "longitude": "126.97645154504488",
      "address":"경기 수원시 장안구 서부로 2066"
    },
    {
      "name": "제1공학관22동",
      "latitude": "37.293845121403436",
      "longitude": "126.97711123949728",
      "address":"경기 수원시 장안구 서부로 2066"
    },
    {
      "name": "제1공학관23동",
      "latitude": "37.29435413614523",
      "longitude": "126.97674454686441",
      "address":"경기 수원시 장안구 서부로 2066"
    },
    {
      "name": "공학실습동B(24)",
      "latitude": "37.2933744891829",
      "longitude": "126.977953845612",
      "address":"경기 수원시 장안구 서부로 2066"
    },
    {
      "name": "제2공학관25동",
      "latitude": "37.29475735039747",
      "longitude": "126.97674442274382",
      "address":"경기 수원시 장안구 서부로 2066"
    },
    {
      "name": "제2공학관26동",
      "latitude": "37.2950250895242",
      "longitude": "126.977421032643",
      "address":"경기 수원시 장안구 서부로 2066"
    },
    {
      "name": "제2공학관27동",
      "latitude": "37.29554129479746",
      "longitude": "126.9769584687818",
      "address":"경기 수원시 장안구 서부로 2066"
    },
    {
      "name": "공학실습동C(28)",
      "latitude": "37.29448283471337",
      "longitude": "126.97832908372115",
      "address":"경기 수원시 장안구 서부로 2066"
    },
    {
      "name": "건축환경실험실",
      "latitude": "37.2934031351252",
      "longitude": "126.976970398863",
      "address":"경기 수원시 장안구 서부로 2066"
    },
    {
      "name": "제1과학관31동",
      "latitude": "37.29447319337312",
      "longitude": "126.97512046051898",
      "address":"경기 수원시 장안구 서부로 2066"
    },
    {
      "name": "제2과학관32동",
      "latitude": "37.29499572826206",
      "longitude": "126.97480449880901",
      "address":"경기 수원시 장안구 서부로 2066"
    },
    {
      "name": "화학관",
      "latitude": "37.2915542336526",
      "longitude": "126.977115316824",
      "address":"경기 수원시 장안구 서부로 2066"
    },
    {
      "name": "반도체관",
      "latitude": "37.2917454120955",
      "longitude": "126.977949809883",
      "address":"경기 수원시 장안구 서부로 2066"
    },
    {
      "name": "삼성학술정보관",
      "latitude": "37.29398659506941",
      "longitude": "126.9749401719617",
      "address":"경기 수원시 장안구 천천동 300"
    },
    {
      "name": "운용재",
      "latitude": "37.2945914029885",
      "longitude": "37.2945914029885",
      "address":"경기 수원시 장안구 서부로 2066"
    },
    {
      "name": "기초학문관51동",
      "latitude": "37.2954497639446",
      "longitude": "126.974398329709",
      "address":"경기 수원시 장안구 서부로 2066"
    },
    {
      "name": "약학관",
      "latitude": "37.2919253758426",
      "longitude": "126.976677627997",
      "address":"경기 수원시 장안구 서부로 2066"
    },
    {
      "name": "생명공학관61동",
      "latitude": "37.29590740036244",
      "longitude": "126.9739831318167",
      "address":"경기 수원시 장안구 서부로 2066"
    },
    {
      "name": "생명공학관62동",
      "latitude": "37.29612647816649",
      "longitude": "126.97456163673115",
      "address":"경기 수원시 장안구 서부로 2066"
    },
    {
      "name": "생명공학실습동",
      "latitude": "37.2951513619099",
      "longitude": "37.2951513619099",
      "address":"경기 수원시 장안구 서부로 2066"
    },
    {
      "name": "의대 대강당",
      "latitude": "37.2923821810237",
      "longitude": "126.972391918914",
      "address":"경기 수원시 장안구 서부로 2066"
    },
    {
      "name": "의학관",
      "latitude": "37.2921949691206",
      "longitude": "126.973280676602",
      "address":"경기 수원시 장안구 서부로 2066"
    },
    {
      "name": "체육관",
      "latitude": "37.29247904836",
      "longitude": "126.97054683133",
      "address":"경기 수원시 장안구 서부로 2066"
    },
    {
      "name": "제1종합연구동",
      "latitude": "37.2923401629156",
      "longitude": "126.978306014929",
      "address":"경기 수원시 장안구 서부로 2066"
    },
    {
      "name": "제2종합연구동",
      "latitude": "37.2933313585908",
      "longitude": "126.978603468261",
      "address":"경기 수원시 장안구 서부로 2066"
    },
    {
      "name": "제약기술관",
      "latitude": "37.29150002692979",
      "longitude": "126.97638002856534",
      "address":"경기 수원시 장안구 서부로 2066"
    },
    {
      "name": "산학협력센터",
      "latitude": "37.2959690357686",
      "longitude": "126.975699674879",
      "address":"경기 수원시 장안구 서부로 2066"
    },
    {
      "name": "N센터",
      "latitude": "37.2921179852328",
      "longitude": "126.975621969145",
      "address":"경기 수원시 장안구 서부로 2066"
    },
    {
      "name": "학군단",
      "latitude": "37.2943823429841",
      "longitude": "126.971791192581",
      "address":"경기 수원시 장안구 천천동 300-8"
    }
  ]
}